[
  {
    "id": 1,
    "name": "열두광주리떡집",
    "address": "강원도 강릉시 금성로23번길 4 (성남동)",
    "lat": 35.1595,
    "lng": 126.8526,
    "types": [
      "onnuri"
    ],
    "category": "떡",
    "phone": "",
    "hours": "운영시간 확인 필요",
    "description": "온누리상품권 사용 가능 매장"
  },
  {
    "id": 2,
    "name": "경기도이천광주상회",
    "address": "강원도 강릉시 주문진읍 항구로 62",
    "lat": 35.164500000000004,
    "lng": 126.85759999999999,
    "types": [
      "onnuri"
    ],
    "category": "건어물",
    "phone": "",
    "hours": "운영시간 확인 필요",
    "description": "온누리상품권 사용 가능 매장"
  },
  {
    "id": 3,
    "name": "광주식당",
    "address": "경기도 고양시 일산서구 일청로8번길 13 (일산동)   1층",
    "lat": 35.1695,
    "lng": 126.8626,
    "types": [
      "onnuri"
    ],
    "category": "한식",
    "phone": "",
    "hours": "운영시간 확인 필요",
    "description": "온누리상품권 사용 가능 매장"
  },
  {
    "id": 4,
    "name": "광주상회",
    "address": "경기도 의정부시 태평로73번길 20 (의정부동)   이라 35,44호",
    "lat": 35.1745,
    "lng": 126.8676,
    "types": [
      "onnuri"
    ],
    "category": "이불",
    "phone": "",
    "hours": "운영시간 확인 필요",
    "description": "온누리상품권 사용 가능 매장"
  },
  {
    "id": 5,
    "name": "광주상회",
    "address": "경기도 평택시 통복시장2로 1-5(통복동)",
    "lat": 35.179500000000004,
    "lng": 126.87259999999999,
    "types": [
      "onnuri"
    ],
    "category": "고추",
    "phone": "",
    "hours": "운영시간 확인 필요",
    "description": "온누리상품권 사용 가능 매장"
  },
  {
    "id": 6,
    "name": "화신상회",
    "address": "광주광역시 광산구 광산로 31-1(송정동)",
    "lat": 35.1845,
    "lng": 126.8776,
    "types": [
      "onnuri"
    ],
    "category": "가방, 모자",
    "phone": "",
    "hours": "운영시간 확인 필요",
    "description": "온누리상품권 사용 가능 매장"
  },
  {
    "id": 7,
    "name": "송죽식품",
    "address": "광주광역시 광산구 사암로 300 (월곡동)",
    "lat": 35.1895,
    "lng": 126.8826,
    "types": [
      "onnuri"
    ],
    "category": "식품",
    "phone": "",
    "hours": "운영시간 확인 필요",
    "description": "온누리상품권 사용 가능 매장"
  },
  {
    "id": 8,
    "name": "무안수산",
    "address": "광주광역시 광산구 사암로 300 (월곡동)",
    "lat": 35.1945,
    "lng": 126.88759999999999,
    "types": [
      "onnuri"
    ],
    "category": "음식",
    "phone": "",
    "hours": "운영시간 확인 필요",
    "description": "온누리상품권 사용 가능 매장"
  },
  {
    "id": 9,
    "name": "동호상사",
    "address": "광주광역시 광산구 사암로 300(월곡동)  월곡시장",
    "lat": 35.1995,
    "lng": 126.8926,
    "types": [
      "onnuri"
    ],
    "category": "가공식품",
    "phone": "",
    "hours": "운영시간 확인 필요",
    "description": "온누리상품권 사용 가능 매장"
  },
  {
    "id": 10,
    "name": "시장통닭",
    "address": "광주광역시 광산구 사암로 300(월곡동)  월곡시장",
    "lat": 35.2045,
    "lng": 126.8976,
    "types": [
      "onnuri"
    ],
    "category": "닭",
    "phone": "",
    "hours": "운영시간 확인 필요",
    "description": "온누리상품권 사용 가능 매장"
  },
  {
    "id": 11,
    "name": "싱싱야채",
    "address": "광주광역시 광산구 사암로 300(월곡동)  월곡시장",
    "lat": 35.2095,
    "lng": 126.90259999999999,
    "types": [
      "onnuri"
    ],
    "category": "야채",
    "phone": "",
    "hours": "운영시간 확인 필요",
    "description": "온누리상품권 사용 가능 매장"
  },
  {
    "id": 12,
    "name": "장터",
    "address": "광주광역시 광산구 사암로 300(월곡동)  월곡시장",
    "lat": 35.2145,
    "lng": 126.9076,
    "types": [
      "onnuri"
    ],
    "category": "한식",
    "phone": "",
    "hours": "운영시간 확인 필요",
    "description": "온누리상품권 사용 가능 매장"
  },
  {
    "id": 13,
    "name": "목포수산",
    "address": "광주광역시 광산구 사암로 300(월곡동)  월곡시장",
    "lat": 35.219500000000004,
    "lng": 126.9126,
    "types": [
      "onnuri"
    ],
    "category": "홍어",
    "phone": "",
    "hours": "운영시간 확인 필요",
    "description": "온누리상품권 사용 가능 매장"
  },
  {
    "id": 14,
    "name": "한일수산",
    "address": "광주광역시 광산구 사암로 300(월곡동)  월곡시장",
    "lat": 35.2245,
    "lng": 126.9176,
    "types": [
      "onnuri"
    ],
    "category": "홍어",
    "phone": "",
    "hours": "운영시간 확인 필요",
    "description": "온누리상품권 사용 가능 매장"
  },
  {
    "id": 15,
    "name": "언니네반찬",
    "address": "광주광역시 광산구 사암로 300(월곡동) 나열 11호",
    "lat": 35.2295,
    "lng": 126.92259999999999,
    "types": [
      "onnuri"
    ],
    "category": "김치",
    "phone": "",
    "hours": "운영시간 확인 필요",
    "description": "온누리상품권 사용 가능 매장"
  },
  {
    "id": 16,
    "name": "한성정육매장",
    "address": "광주광역시 남구 군분로 11-1(주월동)   1층",
    "lat": 35.234500000000004,
    "lng": 126.9276,
    "types": [
      "onnuri"
    ],
    "category": "식육",
    "phone": "",
    "hours": "운영시간 확인 필요",
    "description": "온누리상품권 사용 가능 매장"
  },
  {
    "id": 17,
    "name": "개미식품",
    "address": "광주광역시 남구 군분로 17(주월동)  BYC 개미식품",
    "lat": 35.2395,
    "lng": 126.9326,
    "types": [
      "onnuri"
    ],
    "category": "부식.야채",
    "phone": "",
    "hours": "운영시간 확인 필요",
    "description": "온누리상품권 사용 가능 매장"
  },
  {
    "id": 18,
    "name": "종로떡집",
    "address": "광주광역시 남구 군분로 18(백운동)  가이아 1층",
    "lat": 35.2445,
    "lng": 126.93759999999999,
    "types": [
      "onnuri"
    ],
    "category": "떡",
    "phone": "",
    "hours": "운영시간 확인 필요",
    "description": "온누리상품권 사용 가능 매장"
  },
  {
    "id": 19,
    "name": "장터식육점",
    "address": "광주광역시 남구 군분로 21(주월동)",
    "lat": 35.249500000000005,
    "lng": 126.9426,
    "types": [
      "onnuri"
    ],
    "category": "식육",
    "phone": "",
    "hours": "운영시간 확인 필요",
    "description": "온누리상품권 사용 가능 매장"
  },
  {
    "id": 20,
    "name": "색동저고리",
    "address": "광주광역시 남구 군분로 26(월산동)  색동저고리 색동저고리",
    "lat": 35.2545,
    "lng": 126.9476,
    "types": [
      "onnuri"
    ],
    "category": "의류",
    "phone": "",
    "hours": "운영시간 확인 필요",
    "description": "온누리상품권 사용 가능 매장"
  },
  {
    "id": 21,
    "name": "갈비명가아라네",
    "address": "광주광역시 남구 군분로 26-1(월산동)  연세한의원",
    "lat": 35.2595,
    "lng": 126.95259999999999,
    "types": [
      "onnuri"
    ],
    "category": "음식점",
    "phone": "",
    "hours": "운영시간 확인 필요",
    "description": "온누리상품권 사용 가능 매장"
  },
  {
    "id": 22,
    "name": "정이가네족발",
    "address": "광주광역시 남구 군분로 27(주월동)  1층 6동 C2-14",
    "lat": 35.2645,
    "lng": 126.9576,
    "types": [
      "onnuri"
    ],
    "category": "한식",
    "phone": "",
    "hours": "운영시간 확인 필요",
    "description": "온누리상품권 사용 가능 매장"
  },
  {
    "id": 23,
    "name": "선화네(선화네머리고기)",
    "address": "광주광역시 남구 군분로 27(주월동)  무등시장상가",
    "lat": 35.2695,
    "lng": 126.9626,
    "types": [
      "onnuri"
    ],
    "category": "머리고기",
    "phone": "",
    "hours": "운영시간 확인 필요",
    "description": "온누리상품권 사용 가능 매장"
  },
  {
    "id": 24,
    "name": "무등식품",
    "address": "광주광역시 남구 군분로 27(주월동)  무등시장상가",
    "lat": 35.2745,
    "lng": 126.96759999999999,
    "types": [
      "onnuri"
    ],
    "category": "야채.",
    "phone": "",
    "hours": "운영시간 확인 필요",
    "description": "온누리상품권 사용 가능 매장"
  },
  {
    "id": 25,
    "name": "백합화장품",
    "address": "광주광역시 남구 군분로 27(주월동)  무등시장상가",
    "lat": 35.2795,
    "lng": 126.9726,
    "types": [
      "onnuri"
    ],
    "category": "화장품",
    "phone": "",
    "hours": "운영시간 확인 필요",
    "description": "온누리상품권 사용 가능 매장"
  },
  {
    "id": 26,
    "name": "양지축산",
    "address": "광주광역시 남구 군분로 27(주월동)  무등시장상가 1동 c1-20호",
    "lat": 35.2845,
    "lng": 126.9776,
    "types": [
      "onnuri"
    ],
    "category": "식육",
    "phone": "",
    "hours": "운영시간 확인 필요",
    "description": "온누리상품권 사용 가능 매장"
  },
  {
    "id": 27,
    "name": "한두래식자재마트",
    "address": "광주광역시 남구 군분로 27(주월동)  무등시장상가 D2-13호",
    "lat": 35.289500000000004,
    "lng": 126.98259999999999,
    "types": [
      "onnuri"
    ],
    "category": "잡화",
    "phone": "",
    "hours": "운영시간 확인 필요",
    "description": "온누리상품권 사용 가능 매장"
  },
  {
    "id": 28,
    "name": "광진상회",
    "address": "광주광역시 남구 군분로 27(주월동)  무등시장상가 무등시장",
    "lat": 35.2945,
    "lng": 126.9876,
    "types": [
      "onnuri"
    ],
    "category": "그릇",
    "phone": "",
    "hours": "운영시간 확인 필요",
    "description": "온누리상품권 사용 가능 매장"
  },
  {
    "id": 29,
    "name": "제일떡집",
    "address": "광주광역시 남구 군분로 27(주월동)  무등시장상가 무등시장 6동 1층",
    "lat": 35.2995,
    "lng": 126.9926,
    "types": [
      "onnuri"
    ],
    "category": "떡",
    "phone": "",
    "hours": "운영시간 확인 필요",
    "description": "온누리상품권 사용 가능 매장"
  },
  {
    "id": 30,
    "name": "가연이네팥죽",
    "address": "광주광역시 남구 군분로 27(주월동)  무등시장상가 무등시장 7동 A-4, 13호",
    "lat": 35.304500000000004,
    "lng": 126.99759999999999,
    "types": [
      "onnuri"
    ],
    "category": "한식",
    "phone": "",
    "hours": "운영시간 확인 필요",
    "description": "온누리상품권 사용 가능 매장"
  },
  {
    "id": 31,
    "name": "형제상회",
    "address": "광주광역시 남구 군분로 27(주월동)  무등시장상가 무등시장 C-12호",
    "lat": 35.3095,
    "lng": 127.0026,
    "types": [
      "onnuri"
    ],
    "category": "야채",
    "phone": "",
    "hours": "운영시간 확인 필요",
    "description": "온누리상품권 사용 가능 매장"
  },
  {
    "id": 32,
    "name": "화순청과",
    "address": "광주광역시 남구 군분로 27(주월동)  무등시장상가 화순청과",
    "lat": 35.3145,
    "lng": 127.0076,
    "types": [
      "onnuri"
    ],
    "category": "청과",
    "phone": "",
    "hours": "운영시간 확인 필요",
    "description": "온누리상품권 사용 가능 매장"
  },
  {
    "id": 33,
    "name": "명보석",
    "address": "광주광역시 남구 군분로 33(월산동)  명보석",
    "lat": 35.3195,
    "lng": 127.01259999999999,
    "types": [
      "onnuri"
    ],
    "category": "귀금속",
    "phone": "",
    "hours": "운영시간 확인 필요",
    "description": "온누리상품권 사용 가능 매장"
  },
  {
    "id": 34,
    "name": "화장지총판",
    "address": "광주광역시 남구 군분로 37-2(월산동)  골드노래연습장 화장지총판",
    "lat": 35.3245,
    "lng": 127.0176,
    "types": [
      "onnuri"
    ],
    "category": "화장지",
    "phone": "",
    "hours": "운영시간 확인 필요",
    "description": "온누리상품권 사용 가능 매장"
  },
  {
    "id": 35,
    "name": "제일수산",
    "address": "광주광역시 남구 군분로 39(월산동)  제일센타 제일회센타",
    "lat": 35.3295,
    "lng": 127.0226,
    "types": [
      "onnuri"
    ],
    "category": "회",
    "phone": "",
    "hours": "운영시간 확인 필요",
    "description": "온누리상품권 사용 가능 매장"
  },
  {
    "id": 36,
    "name": "푸드마켓(주월점)",
    "address": "광주광역시 남구 군분로 83(월산동)",
    "lat": 35.3345,
    "lng": 127.02759999999999,
    "types": [
      "onnuri"
    ],
    "category": "수퍼,담배",
    "phone": "",
    "hours": "운영시간 확인 필요",
    "description": "온누리상품권 사용 가능 매장"
  },
  {
    "id": 37,
    "name": "신세계수선",
    "address": "광주광역시 남구 군분로33번길 8-1(월산동)   신세계수선",
    "lat": 35.3395,
    "lng": 127.0326,
    "types": [
      "onnuri"
    ],
    "category": "의류수선",
    "phone": "",
    "hours": "운영시간 확인 필요",
    "description": "온누리상품권 사용 가능 매장"
  },
  {
    "id": 38,
    "name": "광주청과",
    "address": "광주광역시 남구 봉선1로37번길 12(봉선동)   번지",
    "lat": 35.344500000000004,
    "lng": 127.0376,
    "types": [
      "onnuri"
    ],
    "category": "과일",
    "phone": "",
    "hours": "운영시간 확인 필요",
    "description": "온누리상품권 사용 가능 매장"
  },
  {
    "id": 39,
    "name": "라인야채",
    "address": "광주광역시 남구 봉선1로37번길 2-7(봉선동)   라인야채",
    "lat": 35.3495,
    "lng": 127.0426,
    "types": [
      "onnuri"
    ],
    "category": "야채",
    "phone": "",
    "hours": "운영시간 확인 필요",
    "description": "온누리상품권 사용 가능 매장"
  },
  {
    "id": 40,
    "name": "(주)두루축산",
    "address": "광주광역시 남구 봉선로 91(봉선동, 라인아파트)  라인아파트",
    "lat": 35.3545,
    "lng": 127.04759999999999,
    "types": [
      "onnuri"
    ],
    "category": "축산물",
    "phone": "",
    "hours": "운영시간 확인 필요",
    "description": "온누리상품권 사용 가능 매장"
  },
  {
    "id": 41,
    "name": "(유)금강판유리",
    "address": "광주 광산구 북문대로 363-5",
    "lat": 35.1395,
    "lng": 126.8326,
    "types": [
      "gwangju"
    ],
    "category": "유리",
    "phone": "",
    "hours": "운영시간 확인 필요",
    "description": "광주상생카드 사용 가능 매장"
  },
  {
    "id": 42,
    "name": "(유)부광",
    "address": "광주 북구 서암대로 194",
    "lat": 35.143499999999996,
    "lng": 126.8366,
    "types": [
      "gwangju"
    ],
    "category": "출판인쇄물",
    "phone": "",
    "hours": "운영시간 확인 필요",
    "description": "광주상생카드 사용 가능 매장"
  },
  {
    "id": 43,
    "name": "(유)에이치제이더블유역전할머니맥주",
    "address": "광주 광산구 장신로 185",
    "lat": 35.1475,
    "lng": 126.8406,
    "types": [
      "gwangju"
    ],
    "category": "일반한식",
    "phone": "",
    "hours": "운영시간 확인 필요",
    "description": "광주상생카드 사용 가능 매장"
  },
  {
    "id": 44,
    "name": "(유)조은모터스",
    "address": "광주 서구 매월1로62번길 16",
    "lat": 35.1515,
    "lng": 126.8446,
    "types": [
      "gwangju"
    ],
    "category": "중고자동차",
    "phone": "",
    "hours": "운영시간 확인 필요",
    "description": "광주상생카드 사용 가능 매장"
  },
  {
    "id": 45,
    "name": "(재)광주그린카진흥원 상무복합수소충전소",
    "address": "광주 서구 눌재로 589",
    "lat": 35.155499999999996,
    "lng": 126.8486,
    "types": [
      "gwangju"
    ],
    "category": "기타연료",
    "phone": "",
    "hours": "운영시간 확인 필요",
    "description": "광주상생카드 사용 가능 매장"
  },
  {
    "id": 46,
    "name": "(주) 포금",
    "address": "광주 남구 봉선중앙로47번길 10",
    "lat": 35.1595,
    "lng": 126.8526,
    "types": [
      "gwangju"
    ],
    "category": "볼 링 장",
    "phone": "",
    "hours": "운영시간 확인 필요",
    "description": "광주상생카드 사용 가능 매장"
  },
  {
    "id": 47,
    "name": "(주)광주그린섬",
    "address": "광주 동구 중앙로 212",
    "lat": 35.1635,
    "lng": 126.8566,
    "types": [
      "gwangju"
    ],
    "category": "예체능학원",
    "phone": "",
    "hours": "운영시간 확인 필요",
    "description": "광주상생카드 사용 가능 매장"
  },
  {
    "id": 48,
    "name": "(주)그리에이트광주2지사",
    "address": "광주 서구 상무대로 944",
    "lat": 35.1675,
    "lng": 126.8606,
    "types": [
      "gwangju"
    ],
    "category": "미용 재료",
    "phone": "",
    "hours": "운영시간 확인 필요",
    "description": "광주상생카드 사용 가능 매장"
  },
  {
    "id": 49,
    "name": "(주)남구위생산업",
    "address": "광주 남구 군분로89번길 32",
    "lat": 35.171499999999995,
    "lng": 126.8646,
    "types": [
      "gwangju"
    ],
    "category": "종합용역",
    "phone": "",
    "hours": "운영시간 확인 필요",
    "description": "광주상생카드 사용 가능 매장"
  },
  {
    "id": 50,
    "name": "(주)대명월드",
    "address": "광주 서구 내방로358번길 4",
    "lat": 35.1755,
    "lng": 126.8686,
    "types": [
      "gwangju"
    ],
    "category": "사무 기기",
    "phone": "",
    "hours": "운영시간 확인 필요",
    "description": "광주상생카드 사용 가능 매장"
  },
  {
    "id": 51,
    "name": "(주)더원퍼스트",
    "address": "광주광역시 북구 서강로 104-3",
    "lat": 35.1795,
    "lng": 126.8726,
    "types": [
      "gwangju"
    ],
    "category": "볼 링 장",
    "phone": "",
    "hours": "운영시간 확인 필요",
    "description": "광주상생카드 사용 가능 매장"
  },
  {
    "id": 52,
    "name": "(주)드림기획",
    "address": "광주 북구 첨단과기로208번길 43-22",
    "lat": 35.183499999999995,
    "lng": 126.8766,
    "types": [
      "gwangju"
    ],
    "category": "종합용역",
    "phone": "",
    "hours": "운영시간 확인 필요",
    "description": "광주상생카드 사용 가능 매장"
  },
  {
    "id": 53,
    "name": "(주)명성계전",
    "address": "광주 광산구 장덕동",
    "lat": 35.1875,
    "lng": 126.8806,
    "types": [
      "gwangju"
    ],
    "category": "기계 공구",
    "phone": "",
    "hours": "운영시간 확인 필요",
    "description": "광주상생카드 사용 가능 매장"
  },
  {
    "id": 54,
    "name": "(주)박앤정",
    "address": "광주 북구 서암대로 113-2",
    "lat": 35.1915,
    "lng": 126.8846,
    "types": [
      "gwangju"
    ],
    "category": "기타대인서비스",
    "phone": "",
    "hours": "운영시간 확인 필요",
    "description": "광주상생카드 사용 가능 매장"
  },
  {
    "id": 55,
    "name": "(주)산수쌈밥",
    "address": "광주 동구 동계로 11",
    "lat": 35.195499999999996,
    "lng": 126.8886,
    "types": [
      "gwangju"
    ],
    "category": "일반한식",
    "phone": "",
    "hours": "운영시간 확인 필요",
    "description": "광주상생카드 사용 가능 매장"
  },
  {
    "id": 56,
    "name": "(주)서일자동차정비공업사",
    "address": "광주 남구 송암로24번나길 32-6",
    "lat": 35.1995,
    "lng": 126.8926,
    "types": [
      "gwangju"
    ],
    "category": "자동차정비",
    "phone": "",
    "hours": "운영시간 확인 필요",
    "description": "광주상생카드 사용 가능 매장"
  },
  {
    "id": 57,
    "name": "(주)송정현대부품대리점",
    "address": "광주 광산구 상무대로 337-1",
    "lat": 35.2035,
    "lng": 126.89659999999999,
    "types": [
      "gwangju"
    ],
    "category": "자동차부품",
    "phone": "",
    "hours": "운영시간 확인 필요",
    "description": "광주상생카드 사용 가능 매장"
  },
  {
    "id": 58,
    "name": "(주)아름다운컨벤션",
    "address": "광주 광산구 상무대로 509",
    "lat": 35.207499999999996,
    "lng": 126.9006,
    "types": [
      "gwangju"
    ],
    "category": "일반한식",
    "phone": "",
    "hours": "운영시간 확인 필요",
    "description": "광주상생카드 사용 가능 매장"
  },
  {
    "id": 59,
    "name": "(주)야크블랙야크광주아울렛점",
    "address": "광주 서구 상무대로",
    "lat": 35.2115,
    "lng": 126.9046,
    "types": [
      "gwangju"
    ],
    "category": "스포츠의류",
    "phone": "",
    "hours": "운영시간 확인 필요",
    "description": "광주상생카드 사용 가능 매장"
  },
  {
    "id": 60,
    "name": "(주)에프2엠지글로벌뷰티아카데미",
    "address": "광주 동구 금남로 195",
    "lat": 35.2155,
    "lng": 126.90859999999999,
    "types": [
      "gwangju"
    ],
    "category": "기능학원",
    "phone": "",
    "hours": "운영시간 확인 필요",
    "description": "광주상생카드 사용 가능 매장"
  },
  {
    "id": 61,
    "name": "(주)예광포장인쇄",
    "address": "광주 광산구 오선동",
    "lat": 35.2195,
    "lng": 126.9126,
    "types": [
      "gwangju"
    ],
    "category": "기타유통업",
    "phone": "",
    "hours": "운영시간 확인 필요",
    "description": "광주상생카드 사용 가능 매장"
  },
  {
    "id": 62,
    "name": "(주)올리브퍼니쳐",
    "address": "광주 남구 백서로 4-3",
    "lat": 35.2235,
    "lng": 126.9166,
    "types": [
      "gwangju"
    ],
    "category": "민예공예품",
    "phone": "",
    "hours": "운영시간 확인 필요",
    "description": "광주상생카드 사용 가능 매장"
  },
  {
    "id": 63,
    "name": "(주)위드카갤러리",
    "address": "광주 서구 회재유통길 78",
    "lat": 35.2275,
    "lng": 126.9206,
    "types": [
      "gwangju"
    ],
    "category": "중고자동차",
    "phone": "",
    "hours": "운영시간 확인 필요",
    "description": "광주상생카드 사용 가능 매장"
  },
  {
    "id": 64,
    "name": "(주)일광산업",
    "address": "광주 남구 송암로24번길 20",
    "lat": 35.2315,
    "lng": 126.9246,
    "types": [
      "gwangju"
    ],
    "category": "기타자동차서비스",
    "phone": "",
    "hours": "운영시간 확인 필요",
    "description": "광주상생카드 사용 가능 매장"
  },
  {
    "id": 65,
    "name": "(주)제일자동차운전전문학원",
    "address": "광주 광산구 풍영정길 241-17",
    "lat": 35.235499999999995,
    "lng": 126.9286,
    "types": [
      "gwangju"
    ],
    "category": "기능학원",
    "phone": "",
    "hours": "운영시간 확인 필요",
    "description": "광주상생카드 사용 가능 매장"
  },
  {
    "id": 66,
    "name": "(주)지오그래픽스",
    "address": "광주 서구 서창길 15",
    "lat": 35.2395,
    "lng": 126.9326,
    "types": [
      "gwangju"
    ],
    "category": "종합용역",
    "phone": "",
    "hours": "운영시간 확인 필요",
    "description": "광주상생카드 사용 가능 매장"
  },
  {
    "id": 67,
    "name": "(주)케이원레저개발",
    "address": "광주 광산구 상완길 221",
    "lat": 35.2435,
    "lng": 126.9366,
    "types": [
      "gwangju"
    ],
    "category": "골프연습장",
    "phone": "",
    "hours": "운영시간 확인 필요",
    "description": "광주상생카드 사용 가능 매장"
  },
  {
    "id": 68,
    "name": "(주)태성공조",
    "address": "광주 북구 하남대로 549",
    "lat": 35.247499999999995,
    "lng": 126.9406,
    "types": [
      "gwangju"
    ],
    "category": "기타전기제품",
    "phone": "",
    "hours": "운영시간 확인 필요",
    "description": "광주상생카드 사용 가능 매장"
  },
  {
    "id": 69,
    "name": "(주)푸드나무",
    "address": "광주 광산구 평동로740번길 66-16",
    "lat": 35.2515,
    "lng": 126.9446,
    "types": [
      "gwangju"
    ],
    "category": "기타음료식품",
    "phone": "",
    "hours": "운영시간 확인 필요",
    "description": "광주상생카드 사용 가능 매장"
  },
  {
    "id": 70,
    "name": "(주)한두레유통",
    "address": "광주 북구 비엔날레로 108",
    "lat": 35.2555,
    "lng": 126.9486,
    "types": [
      "gwangju"
    ],
    "category": "슈퍼 마켓",
    "phone": "",
    "hours": "운영시간 확인 필요",
    "description": "광주상생카드 사용 가능 매장"
  },
  {
    "id": 71,
    "name": "(주)현대철망",
    "address": "광주 광산구 동곡로 386",
    "lat": 35.259499999999996,
    "lng": 126.9526,
    "types": [
      "gwangju"
    ],
    "category": "기타건축자재",
    "phone": "",
    "hours": "운영시간 확인 필요",
    "description": "광주상생카드 사용 가능 매장"
  },
  {
    "id": 72,
    "name": "다2",
    "address": "광주 광산구 왕버들로 129",
    "lat": 35.2635,
    "lng": 126.9566,
    "types": [
      "gwangju"
    ],
    "category": "농축수산품",
    "phone": "",
    "hours": "운영시간 확인 필요",
    "description": "광주상생카드 사용 가능 매장"
  },
  {
    "id": 73,
    "name": "134리듬복싱 상무본점",
    "address": "광주 서구 운천로 131",
    "lat": 35.2675,
    "lng": 126.9606,
    "types": [
      "gwangju"
    ],
    "category": "헬스 크럽",
    "phone": "",
    "hours": "운영시간 확인 필요",
    "description": "광주상생카드 사용 가능 매장"
  },
  {
    "id": 74,
    "name": "100억노래연습장",
    "address": "광주 북구 동림동",
    "lat": 35.271499999999996,
    "lng": 126.9646,
    "types": [
      "gwangju"
    ],
    "category": "노래방",
    "phone": "",
    "hours": "운영시간 확인 필요",
    "description": "광주상생카드 사용 가능 매장"
  },
  {
    "id": 75,
    "name": "119종합카센터",
    "address": "광주 서구 시청서편로4번길 4-1",
    "lat": 35.2755,
    "lng": 126.9686,
    "types": [
      "gwangju"
    ],
    "category": "자동차정비",
    "phone": "",
    "hours": "운영시간 확인 필요",
    "description": "광주상생카드 사용 가능 매장"
  },
  {
    "id": 76,
    "name": "153유클리드 수학전문학원",
    "address": "광주 광산구 임방울대로 330",
    "lat": 35.2795,
    "lng": 126.9726,
    "types": [
      "gwangju"
    ],
    "category": "보습학원",
    "phone": "",
    "hours": "운영시간 확인 필요",
    "description": "광주상생카드 사용 가능 매장"
  },
  {
    "id": 77,
    "name": "1983영광오뚜기국수집",
    "address": "광주 서구 상무연하로 112",
    "lat": 35.2835,
    "lng": 126.9766,
    "types": [
      "gwangju"
    ],
    "category": "일반한식",
    "phone": "",
    "hours": "운영시간 확인 필요",
    "description": "광주상생카드 사용 가능 매장"
  },
  {
    "id": 78,
    "name": "1등로또방",
    "address": "광주 동구 중앙로 249-2",
    "lat": 35.2875,
    "lng": 126.9806,
    "types": [
      "gwangju"
    ],
    "category": "시계",
    "phone": "",
    "hours": "운영시간 확인 필요",
    "description": "광주상생카드 사용 가능 매장"
  },
  {
    "id": 79,
    "name": "2030미라인외과의원",
    "address": "광주광역시 서구 죽봉대로 95",
    "lat": 35.2915,
    "lng": 126.9846,
    "types": [
      "gwangju"
    ],
    "category": "의원",
    "phone": "",
    "hours": "운영시간 확인 필요",
    "description": "광주상생카드 사용 가능 매장"
  },
  {
    "id": 80,
    "name": "237떡집",
    "address": "광주 남구 효천중앙로 52",
    "lat": 35.2955,
    "lng": 126.9886,
    "types": [
      "gwangju"
    ],
    "category": "기타음료식품",
    "phone": "",
    "hours": "운영시간 확인 필요",
    "description": "광주상생카드 사용 가능 매장"
  },
  {
    "id": 81,
    "name": "광주종합마트",
    "address": "광주광역시 서구 상무대로 1234",
    "lat": 35.152,
    "lng": 126.848,
    "types": [
      "onnuri",
      "gwangju"
    ],
    "category": "마트/편의점",
    "phone": "062-123-4567",
    "hours": "09:00 - 22:00",
    "description": "온누리상품권과 광주상생카드 모두 사용 가능한 대형마트"
  },
  {
    "id": 82,
    "name": "광주맛집식당",
    "address": "광주광역시 남구 주월동 1234-5",
    "lat": 35.135,
    "lng": 126.905,
    "types": [
      "onnuri",
      "gwangju"
    ],
    "category": "음식점",
    "phone": "062-234-5678",
    "hours": "11:00 - 21:00",
    "description": "온누리상품권과 광주상생카드 모두 사용 가능한 한식당"
  }
]